{"type":"FeatureCollection","features":[{"type":"Feature","geometry":{"type":"Point","coordinates":[114.1071,22.3319]},"properties":{"GMID":"EDHtRJd2bL","Northing":821429.0,"Easting":829079.0,"Dataset":"List of Oil Storage Installation Licence","Address":"40-50 Tsing Yi Road, Tsing Yi Island, New Territories","數據集":"貯油裝置牌照列表","地址":"新界青衣島青衣路40-50號","District":"KWAI TSING","區域":"葵青","Licence No.":"BA-10","牌照編號":"BA-10","Last Update":"2022-03-23 08:00:12"}},{"type":"Feature","geometry":{"type":"Point","coordinates":[114.1025,22.3292]},"properties":{"GMID":"AyFGwxTRjl","Northing":821131.0,"Easting":828605.0,"Dataset":"List of Oil Storage Installation Licence","Address":"Tsing Yi Road, Tsing Yi Island, New Territories","數據集":"貯油裝置牌照列表","地址":"新界青衣島青衣路","District":"KWAI TSING","區域":"葵青","Licence No.":"BA-11","牌照編號":"BA-11","Last Update":"2022-03-23 07:57:37"}},{"type":"Feature","geometry":{"type":"Point","coordinates":[114.1923,22.3199]},"properties":{"GMID":"BaMfERHLOn","Northing":820099.0,"Easting":837857.0,"Dataset":"List of Oil Storage Installation Licence","Address":"100 To Kwa Wan Road, Ma Tau Kok, Kowloon","數據集":"貯油裝置牌照列表","地址":"馬頭角土瓜灣道100號","District":"KOWLOON CITY","區域":"九龍城","Licence No.":"BA-12","牌照編號":"BA-12","Last Update":"2022-03-23 07:59:13"}},{"type":"Feature","geometry":{"type":"Point","coordinates":[114.0911,22.3407]},"properties":{"GMID":"bVmJWs8gQI","Northing":822405.0,"Easting":827432.0,"Dataset":"List of Oil Storage Installation Licence","Address":"T.Y.T.L. 48R.P., Sai Tso Wan Road, Tsing Yi Island, New Territories","數據集":"貯油裝置牌照列表","地址":"新界青衣島茜草灣路T.Y.T.L. 48 R.P.","District":"KWAI TSING","區域":"葵青","Licence No.":"BA-17","牌照編號":"BA-17","Last Update":"2022-03-23 07:59:36"}},{"type":"Feature","geometry":{"type":"Point","coordinates":[113.9217,22.3787]},"properties":{"GMID":"itaPaf56tL","Northing":826632.0,"Easting":809988.0,"Dataset":"List of Oil Storage Installation Licence","Address":"Castle Peak Power Station, 9 Lung Yiu Street, Tuen Mun, New Territories","數據集":"貯油裝置牌照列表","地址":"屯門龍耀街9號青山發電廠","District":"TUEN MUN","區域":"屯門","Licence No.":"BA-27","牌照編號":"BA-27","Last Update":"2022-03-23 07:58:47"}},{"type":"Feature","geometry":{"type":"Point","coordinates":[113.9186,22.3765]},"properties":{"GMID":"VVXflz6AfF","Northing":826389.0,"Easting":809668.0,"Dataset":"List of Oil Storage Installation Licence","Address":"Castle Peak Power Station, 9 Lung Yiu Street, Tuen Mun, New Territories","數據集":"貯油裝置牌照列表","地址":"屯門龍耀街9號青山發電廠","District":"TUEN MUN","區域":"屯門","Licence No.":"BA-28","牌照編號":"BA-28","Last Update":"2022-03-23 08:00:32"}},{"type":"Feature","geometry":{"type":"Point","coordinates":[114.1062,22.2203]},"properties":{"GMID":"d0whQrjX5m","Northing":809071.0,"Easting":828981.0,"Dataset":"List of Oil Storage Installation Licence","Address":"Lamma Power Station, Po Lo Tsui, Lamma Island","數據集":"貯油裝置牌照列表","地址":"南丫島波羅咀南丫發電廠","District":"ISLANDS","區域":"離島區","Licence No.":"BA-29","牌照編號":"BA-29","Last Update":"2022-03-23 07:59:55"}},{"type":"Feature","geometry":{"type":"Point","coordinates":[114.1081,22.2188]},"properties":{"GMID":"ZXTcBuTv0U","Northing":808905.0,"Easting":829177.0,"Dataset":"List of Oil Storage Installation Licence","Address":"Lamma Power Station, Po Lo Tsui, Lamma Island","數據集":"貯油裝置牌照列表","地址":"南丫島波羅咀南丫發電廠","District":"ISLANDS","區域":"離島區","Licence No.":"BA-30","牌照編號":"BA-30","Last Update":"2022-03-23 07:58:31"}},{"type":"Feature","geometry":{"type":"Point","coordinates":[114.2428,22.2741]},"properties":{"GMID":"1U8cijpoyr","Northing":815029.0,"Easting":843062.0,"Dataset":"List of Oil Storage Installation Licence","Address":"5 Chong Fu Road, Chai Wan, Hong Kong","數據集":"貯油裝置牌照列表","地址":"柴灣創富道5號","District":"EASTERN","區域":"東區","Licence No.":"BA-31","牌照編號":"BA-31","Last Update":"2022-03-23 07:57:55"}},{"type":"Feature","geometry":{"type":"Point","coordinates":[113.9231,22.3707]},"properties":{"GMID":"0yYjpllVPt","Northing":825746.0,"Easting":810131.0,"Dataset":"List of Oil Storage Installation Licence","Address":"No.7 Lung Yiu Street, Tap Shek Kok, Tuen Mun, New Territories","數據集":"貯油裝置牌照列表","地址":"屯門踏石角龍耀街7號","District":"TUEN MUN","區域":"屯門","Licence No.":"BA-32","牌照編號":"BA-32","Last Update":"2022-03-23 08:00:46"}},{"type":"Feature","geometry":{"type":"Point","coordinates":[114.1854,22.4539]},"properties":{"GMID":"ITXf0lFNQC","Northing":834938.0,"Easting":837145.0,"Dataset":"List of Oil Storage Installation Licence","Address":"17-19 Dai Fat Street, Tai Po Industrial Estate, Tai Po, New Territories","數據集":"貯油裝置牌照列表","地址":"大埔工業邨大發街17-19號","District":"TAI PO","區域":"大埔","Licence No.":"BA-35","牌照編號":"BA-35","Last Update":"2022-03-23 07:58:14"}},{"type":"Feature","geometry":{"type":"Point","coordinates":[114.1837,22.454]},"properties":{"GMID":"pATOz5SALI","Northing":834949.0,"Easting":836970.0,"Dataset":"List of Oil Storage Installation Licence","Address":"17-19 Dai Fat Street, Tai Po Industrial Estate, Tai Po, New Territories","數據集":"貯油裝置牌照列表","地址":"大埔工業邨大發街17-19號","District":"TAI PO","區域":"大埔","Licence No.":"BA-36","牌照編號":"BA-36","Last Update":"2022-03-23 07:55:51"}},{"type":"Feature","geometry":{"type":"Point","coordinates":[114.0879,22.3449]},"properties":{"GMID":"M8c4zXDnn8","Northing":822870.0,"Easting":827102.0,"Dataset":"List of Oil Storage Installation Licence","Address":"Shell Tsing Yi Installation Oil Terminals , Sai Tso Wan Road, Tsing Yi Island, New Territories","數據集":"貯油裝置牌照列表","地址":"新界青衣島茜草灣路蜆殼公司青衣油庫","District":"KWAI TSING","區域":"葵青","Licence No.":"BA-37","牌照編號":"BA-37","Last Update":"2022-03-23 07:56:29"}},{"type":"Feature","geometry":{"type":"Point","coordinates":[114.0413,22.3199]},"properties":{"GMID":"URAYAySdIC","Northing":820105.0,"Easting":822299.0,"Dataset":"List of Oil Storage Installation Licence","Address":"Penny\u0027s Bay Power Station, Wing Yan Road, Penny\u0027s Bay, Lantau Island","數據集":"貯油裝置牌照列表","地址":"大嶼山竹篙灣榮欣路竹篙灣發電廠","District":"ISLANDS","區域":"離島區","Licence No.":"BA-39","牌照編號":"BA-39","Last Update":"2022-03-23 07:56:57"}},{"type":"Feature","geometry":{"type":"Point","coordinates":[114.0263,22.4638]},"properties":{"GMID":"uWXlK9F68N","Northing":836042.0,"Easting":820770.0,"Dataset":"List of Oil Storage Installation Licence","Address":"12 Wang Lok Street, Yuen Long Industrial Estate, New Territories","數據集":"貯油裝置牌照列表","地址":"元朗工業邨宏樂街12號","District":"YUEN LONG","區域":"元朗","Licence No.":"BA-40","牌照編號":"BA-40","Last Update":"2022-03-23 07:57:10"}},{"type":"Feature","geometry":{"type":"Point","coordinates":[114.0024,22.3641]},"properties":{"GMID":"7k2RfbKa1Z","Northing":825004.0,"Easting":818297.0,"Dataset":"List of Oil Storage Installation Licence","Address":"17 MS Castle Peak Road, Lok On Pai, Tuen Mun, New Territories","數據集":"貯油裝置牌照列表","地址":"屯門樂安排青山公路大欖段","District":"TUEN MUN","區域":"屯門","Licence No.":"BA-41","牌照編號":"BA-41","Last Update":"2022-03-23 07:55:36"}},{"type":"Feature","geometry":{"type":"Point","coordinates":[114.0946,22.3277]},"properties":{"GMID":"xPJOkTS5yi","Northing":820965.0,"Easting":827791.0,"Dataset":"List of Oil Storage Installation Licence","Address":"19, Tsing Keung Street, Tsing Yi Island, New Territories","數據集":"貯油裝置牌照列表","地址":"青衣青強街19號","District":"KWAI TSING","區域":"葵青","Licence No.":"BA-42","牌照編號":"BA-42","Last Update":"2022-03-23 07:54:45"}},{"type":"Feature","geometry":{"type":"Point","coordinates":[114.1071,22.3279]},"properties":{"GMID":"FxFu9yRjjw","Northing":820986.0,"Easting":829079.0,"Dataset":"List of Oil Storage Installation Licence","Address":"No. 53-67 Tsing Yi Road, Tsing Yi Island, New Territories","數據集":"貯油裝置牌照列表","地址":"青衣青衣路53-67號","District":"KWAI TSING","區域":"葵青","Licence No.":"BA-43","牌照編號":"BA-43","Last Update":"2022-03-23 07:55:01"}},{"type":"Feature","geometry":{"type":"Point","coordinates":[113.9074,22.4122]},"properties":{"GMID":"fYSr8mGjxv","Northing":830345.0,"Easting":808522.0,"Dataset":"List of Oil Storage Installation Licence","Address":"Black Point Power Station, Yung Long Road, Lung Kwu Tan, Tuen Mun, New Territories","數據集":"貯油裝置牌照列表","地址":"屯門龍鼓灘湧浪路龍鼓灘發電廠","District":"TUEN MUN","區域":"屯門","Licence No.":"BA-44","牌照編號":"BA-44","Last Update":"2022-03-23 07:55:14"}},{"type":"Feature","geometry":{"type":"Point","coordinates":[113.9312,22.2941]},"properties":{"GMID":"2NzjqZ5V7k","Northing":817263.0,"Easting":810951.0,"Dataset":"List of Oil Storage Installation Licence","Address":"Aviation Fuel Tank Farm, 3 Scenic Road, Hong Kong International Airport, Chek Lap Kok, Lantau Island","數據集":"貯油裝置牌照列表","地址":"大嶼山赤鱲角觀景路3號機場航煤油庫","District":"ISLANDS","區域":"離島區","Licence No.":"BA-45","牌照編號":"BA-45","Last Update":"2022-03-23 07:56:13"}},{"type":"Feature","geometry":{"type":"Point","coordinates":[113.9236,22.3688]},"properties":{"GMID":"j4u9J4B194","Northing":825536.0,"Easting":810182.0,"Dataset":"List of Oil Storage Installation Licence","Address":"No. 5, Lung Yiu Street, Tap Shek Kok, Tuen Mun, New Territories","數據集":"貯油裝置牌照列表","地址":"屯門踏石角龍耀街5號","District":"TUEN MUN","區域":"屯門","Licence No.":"BA-46","牌照編號":"BA-46","Last Update":"2022-03-23 08:02:21"}},{"type":"Feature","geometry":{"type":"Point","coordinates":[113.9274,22.3684]},"properties":{"GMID":"qvwqnwJqpi","Northing":825491.0,"Easting":810573.0,"Dataset":"List of Oil Storage Installation Licence","Address":"9 Lung Hong Street, Tap Shek Kok, Tuen Mun, New Territories","數據集":"貯油裝置牌照列表","地址":"屯門踏石角龍康街9號","District":"TUEN MUN","區域":"屯門","Licence No.":"BA-47","牌照編號":"BA-47","Last Update":"2022-03-23 07:54:30"}},{"type":"Feature","geometry":{"type":"Point","coordinates":[114.1064004,22.21449986]},"properties":{"GMID":"8FOftaVkTp","Northing":808429.0,"Easting":829001.0,"Dataset":"List of Oil Storage Installation Licence","Address":"Lamma Power Station Extension, Po Lo Tsui, Lamma Island","數據集":"貯油裝置牌照列表","地址":"南丫島波羅咀南丫發電廠擴建部分","District":"ISLANDS","區域":"離島區","Licence No.":"BA-48","牌照編號":"BA-48","Last Update":"2022-03-23 07:54:06"}}]}